{"type":"FeatureCollection","bbox":[-122.40782717367989,47.49886332128322,-122.25863614646333,47.72463110801355],"features":[{"type":"Feature","geometry":{"type":"Point","coordinates":[-122.31510488930327,47.58546920487336]},"properties":{"OBJECTID":"2","TYPE":"Elementary","SCHOOL":"BEACON HILL ELEM","ADDRESS":"2025 14th Ave. S","SE_ANNO_CA":"","NAME":"Beacon Hill Int'l","GRADE":"K-5","CITY":"Seattle","ZIP":"98144","PHONE":"(206) 252-2700","WEBSITE":"http://beaconhilles.seattleschools.org/","XCOORD":"1.27476089987e+06","YCOORD":"2.17081839912e+05","SITE_USE":"Active","PRJ_ENRLLM":""}},{"type":"Feature","geometry":{"type":"Point","coordinates":[-122.32469058415133,47.523610901696486]},"properties":{"OBJECTID":"4","TYPE":"Elementary","SCHOOL":"CONCORD ELEM","ADDRESS":"723 S Concord St.","SE_ANNO_CA":"","NAME":"Concord Int'l","GRADE":"K-5","CITY":"Seattle","ZIP":"98108","PHONE":"(206) 252-8100","WEBSITE":"http://concordes.seattleschools.org/","XCOORD":"1.27195849996e+06","YCOORD":"1.94568029953e+05","SITE_USE":"Active","PRJ_ENRLLM":""}},{"type":"Feature","geometry":{"type":"Point","coordinates":[-122.38723454642715,47.57949540001896]},"properties":{"OBJECTID":"5","TYPE":"Elementary","SCHOOL":"LAFAYETTE ELEM","ADDRESS":"2645 California Ave SW","SE_ANNO_CA":"","NAME":"Lafayette","GRADE":"K-5","CITY":"Seattle","ZIP":"98116","PHONE":"(206)252-9500","WEBSITE":"http://lafayettees.seattleschools.org/","XCOORD":"1.25691988011e+06","YCOORD":"2.15254310102e+05","SITE_USE":"Active","PRJ_ENRLLM":""}},{"type":"Feature","geometry":{"type":"Point","coordinates":[-122.31837891574393,47.62442342416272]},"properties":{"OBJECTID":"6","TYPE":"Elementary","SCHOOL":"LOWELL ELEM","ADDRESS":"1058 E Mercer St","SE_ANNO_CA":"","NAME":"Lowell","GRADE":"K-5","CITY":"Seattle","ZIP":"98102","PHONE":"(206)252-3020","WEBSITE":"http://lowelles.seattleschools.org/","XCOORD":"1.27422725002e+06","YCOORD":"2.31303909893e+05","SITE_USE":"Active","PRJ_ENRLLM":""}},{"type":"Feature","geometry":{"type":"Point","coordinates":[-122.2629332221568,47.67365154834311]},"properties":{"OBJECTID":"7","TYPE":"Elementary","SCHOOL":"SAND POINT BLDG","ADDRESS":"6208 60th Ave NE","SE_ANNO_CA":"","NAME":"Sand Point","GRADE":"K-5","CITY":"Seattle","ZIP":"98115","PHONE":"(206)252-4640","WEBSITE":"http://sandpointes.seattleschools.org/","XCOORD":"1.28823126007e+06","YCOORD":"2.48998630081e+05","SITE_USE":"Active","PRJ_ENRLLM":""}},{"type":"Feature","geometry":{"type":"Point","coordinates":[-122.38896559963601,47.6860025722705]},"properties":{"OBJECTID":"11","TYPE":"Elementary","SCHOOL":"LOYAL HEIGHTS","ADDRESS":"7735 25th Ave NW","SE_ANNO_CA":"","NAME":"Loyal Heights","GRADE":"K-5","CITY":"Seattle","ZIP":"98117","PHONE":"(206)252-6000","WEBSITE":"http://loyalheightses.seattleschools.org/","XCOORD":"1.25727799980e+06","YCOORD":"2.54105140537e+05","SITE_USE":"Active","PRJ_ENRLLM":""}},{"type":"Feature","geometry":{"type":"Point","coordinates":[-122.2959130293799,47.5380908250708]},"properties":{"OBJECTID":"12","TYPE":"Elementary","SCHOOL":"VAN ASSELT ELEM","ADDRESS":"7201 Beacon Ave S","SE_ANNO_CA":"","NAME":"Wing Luke","GRADE":"K-5","CITY":"Seattle","ZIP":"98108","PHONE":"(206)252-7630","WEBSITE":"http://lukees.seattleschools.org/","XCOORD":"1.27916785989e+06","YCOORD":"1.99712390071e+05","SITE_USE":"Interim","PRJ_ENRLLM":""}},{"type":"Feature","geometry":{"type":"Point","coordinates":[-122.27691175973195,47.54174320627534]},"properties":{"OBJECTID":"13","TYPE":"Elementary","SCHOOL":"BRIGHTON ELEM","ADDRESS":"6725 45th Ave S","SE_ANNO_CA":"","NAME":"Martin Luther King Jr","GRADE":"K-5","CITY":"Seattle","ZIP":"98118","PHONE":"(206)252-6770","WEBSITE":"http://kinges.seattleschools.org/","XCOORD":"1.28388550006e+06","YCOORD":"2.00955799986e+05","SITE_USE":"Active","PRJ_ENRLLM":""}},{"type":"Feature","geometry":{"type":"Point","coordinates":[-122.27465565479055,47.52498918899431]},"properties":{"OBJECTID":"17","TYPE":"Elementary","SCHOOL":"DUNLAP ELEM","ADDRESS":"4525 S Cloverdale St","SE_ANNO_CA":"","NAME":"Dunlap","GRADE":"K-5","CITY":"Seattle","ZIP":"98118","PHONE":"(206)252-7000","WEBSITE":"http://dunlapes.seattleschools.org/","XCOORD":"1.28432819012e+06","YCOORD":"1.94835150153e+05","SITE_USE":"Active","PRJ_ENRLLM":""}},{"type":"Feature","geometry":{"type":"Point","coordinates":[-122.36224678159759,47.67059930369413]},"properties":{"OBJECTID":"18","TYPE":"Elementary","SCHOOL":"WEST WOODLAND ELEM","ADDRESS":"5601 4th Ave NW","SE_ANNO_CA":"","NAME":"West Woodland","GRADE":"K-5","CITY":"Seattle","ZIP":"98107","PHONE":"(206)252-1600","WEBSITE":"http://westwoodlandes.seattleschools.org/","XCOORD":"1.26374612006e+06","YCOORD":"2.48355779989e+05","SITE_USE":"Active","PRJ_ENRLLM":""}},{"type":"Feature","geometry":{"type":"Point","coordinates":[-122.37349268730291,47.54176186723984]},"properties":{"OBJECTID":"19","TYPE":"Elementary","SCHOOL":"HIGH POINT ELEM","ADDRESS":"6760 34th Ave SW","SE_ANNO_CA":"","NAME":"West Seattle Elementary","GRADE":"K-5","CITY":"Seattle","ZIP":"98126","PHONE":"(206)252-9450","WEBSITE":"http://westseattlees.seattleschools.org/","XCOORD":"1.26003542013e+06","YCOORD":"2.01425019848e+05","SITE_USE":"Active","PRJ_ENRLLM":""}},{"type":"Feature","geometry":{"type":"Point","coordinates":[-122.37307537930305,47.68358982312679]},"properties":{"OBJECTID":"20","TYPE":"Elementary","SCHOOL":"WHITTIER ELEM","ADDRESS":"1320 NW 75th St","SE_ANNO_CA":"","NAME":"Whittier","GRADE":"K-5","CITY":"Seattle","ZIP":"98117","PHONE":"(206)252-1650","WEBSITE":"http://whittieres.seattleschools.org/","XCOORD":"1.26117349004e+06","YCOORD":"2.53146520079e+05","SITE_USE":"Active","PRJ_ENRLLM":""}},{"type":"Feature","geometry":{"type":"Point","coordinates":[-122.37492741813028,47.53283765918496]},"properties":{"OBJECTID":"22","TYPE":"Elementary","SCHOOL":"HUGHES","ADDRESS":"7740 34th Ave SW","SE_ANNO_CA":"","NAME":"Roxhill at E.C. Hughes","GRADE":"K-5","CITY":"Seattle","ZIP":"98126","PHONE":"(206)252-9570","WEBSITE":"http://roxhilles.seattleschools.org/","XCOORD":"1.25961591999e+06","YCOORD":"1.98177529952e+05","SITE_USE":"Interim","PRJ_ENRLLM":""}},{"type":"Feature","geometry":{"type":"Point","coordinates":[-122.40782717367989,47.57714172395259]},"properties":{"OBJECTID":"23","TYPE":"Elementary","SCHOOL":"ALKI ELEM","ADDRESS":"3010 59th Ave SW","SE_ANNO_CA":"","NAME":"Alki","GRADE":"K-5","CITY":"Seattle","ZIP":"98116","PHONE":"(206)252-9050","WEBSITE":"http://alkies.seattleschools.org/","XCOORD":"1.25182084011e+06","YCOORD":"2.14499249933e+05","SITE_USE":"Active","PRJ_ENRLLM":""}},{"type":"Feature","geometry":{"type":"Point","coordinates":[-122.35865808228831,47.539608390153305]},"properties":{"OBJECTID":"29","TYPE":"Elementary","SCHOOL":"SANISLO ELEM","ADDRESS":"1812 SW Myrtle St","SE_ANNO_CA":"","NAME":"Sanislo","GRADE":"K-5","CITY":"Seattle","ZIP":"98106","PHONE":"(206)252-8380","WEBSITE":"http://sanisloes.seattleschools.org/","XCOORD":"1.26368315004e+06","YCOORD":"2.00566689871e+05","SITE_USE":"Active","PRJ_ENRLLM":""}},{"type":"Feature","geometry":{"type":"Point","coordinates":[-122.29984633219807,47.590958548725084]},"properties":{"OBJECTID":"32","TYPE":"Elementary","SCHOOL":"COLMAN SITE","ADDRESS":"2401 S Irving St","SE_ANNO_CA":"","NAME":"Thurgood Marshall","GRADE":"K-5","CITY":"Seattle","ZIP":"98144","PHONE":"(206)252-2800","WEBSITE":"http://marshalles.seattleschools.org/","XCOORD":"1.27856394016e+06","YCOORD":"2.19011670042e+05","SITE_USE":"Active","PRJ_ENRLLM":""}},{"type":"Feature","geometry":{"type":"Point","coordinates":[-122.3801912328801,47.55257320135188]},"properties":{"OBJECTID":"33","TYPE":"Elementary","SCHOOL":"FAIRMOUNT PARK ELEM","ADDRESS":"3800 SW Findlay St","SE_ANNO_CA":"","NAME":"Fairmount Park","GRADE":"K-5","CITY":"Seattle","ZIP":"98126","PHONE":"(206)252-9300","WEBSITE":"http://fairmountparkes.seattleschools.org/","XCOORD":"1.25846052991e+06","YCOORD":"2.05401000085e+05","SITE_USE":"Active","PRJ_ENRLLM":""}},{"type":"Feature","geometry":{"type":"Point","coordinates":[-122.38703550026234,47.694974510719824]},"properties":{"OBJECTID":"34","TYPE":"Elementary","SCHOOL":"NORTH BEACH ELEM","ADDRESS":"9018 24th Ave NW","SE_ANNO_CA":"","NAME":"North Beach","GRADE":"K-5","CITY":"Seattle","ZIP":"98117","PHONE":"(206)252-1510","WEBSITE":"http://northbeaches.seattleschools.org/","XCOORD":"1.25781937010e+06","YCOORD":"2.57367530010e+05","SITE_USE":"Active","PRJ_ENRLLM":""}},{"type":"Feature","geometry":{"type":"Point","coordinates":[-122.2890355072899,47.52915162930787]},"properties":{"OBJECTID":"36","TYPE":"Elementary","SCHOOL":"AFRICAN AMERICAN ACADEMY","ADDRESS":"8311 Beacon Ave S","SE_ANNO_CA":"","NAME":"Van Asselt","GRADE":"K-5","CITY":"Seattle","ZIP":"98118","PHONE":"(206)252-7500","WEBSITE":"http://vanasseltes.seattleschools.org/","XCOORD":"1.28080468995e+06","YCOORD":"1.96420060041e+05","SITE_USE":"Active","PRJ_ENRLLM":""}},{"type":"Feature","geometry":{"type":"Point","coordinates":[-122.27796307423417,47.662198034317896]},"properties":{"OBJECTID":"39","TYPE":"Elementary","SCHOOL":"LAURELHURST ELEM","ADDRESS":"4530 46th Ave NE","SE_ANNO_CA":"","NAME":"Laurelhurst","GRADE":"K-5","CITY":"Seattle","ZIP":"98105","PHONE":"(206)252-5400","WEBSITE":"http://laurelhurstes.seattleschools.org/","XCOORD":"1.28445063016e+06","YCOORD":"2.44890659950e+05","SITE_USE":"Active","PRJ_ENRLLM":""}},{"type":"Feature","geometry":{"type":"Point","coordinates":[-122.25863614646333,47.51482046544161]},"properties":{"OBJECTID":"42","TYPE":"Elementary","SCHOOL":"EMERSON ELEM","ADDRESS":"9709 60th Ave S","SE_ANNO_CA":"","NAME":"Emerson","GRADE":"K-5","CITY":"Seattle","ZIP":"98118","PHONE":"(206)252-7100","WEBSITE":"http://emersones.seattleschools.org/","XCOORD":"1.28821676994e+06","YCOORD":"1.91052880159e+05","SITE_USE":"Active","PRJ_ENRLLM":""}},{"type":"Feature","geometry":{"type":"Point","coordinates":[-122.2918136254579,47.60210319153426]},"properties":{"OBJECTID":"44","TYPE":"Elementary","SCHOOL":"LESCHI ELEM","ADDRESS":"135 32nd Ave","SE_ANNO_CA":"","NAME":"Leschi","GRADE":"K-5","CITY":"Seattle","ZIP":"98122","PHONE":"(206)252-2950","WEBSITE":"http://leschies.seattleschools.org/","XCOORD":"1.28062275986e+06","YCOORD":"2.23038450046e+05","SITE_USE":"Active","PRJ_ENRLLM":""}},{"type":"Feature","geometry":{"type":"Point","coordinates":[-122.34912373578801,47.65463546026136]},"properties":{"OBJECTID":"45","TYPE":"Elementary","SCHOOL":"B F DAY ELEM","ADDRESS":"3921 Linden Ave N","SE_ANNO_CA":"","NAME":"B.F. Day","GRADE":"K-5","CITY":"Seattle","ZIP":"98103","PHONE":"(206)252-6010","WEBSITE":"http://dayes.seattleschools.org/","XCOORD":"1.26686406986e+06","YCOORD":"2.42469889857e+05","SITE_USE":"Active","PRJ_ENRLLM":""}},{"type":"Feature","geometry":{"type":"Point","coordinates":[-122.2753321690008,47.68068710559104]},"properties":{"OBJECTID":"49","TYPE":"Elementary","SCHOOL":"VIEW RIDGE ELEM","ADDRESS":"7047 50th Ave NE","SE_ANNO_CA":"","NAME":"View Ridge","GRADE":"K-5","CITY":"Seattle","ZIP":"98115","PHONE":"(206)252-5600","WEBSITE":"http://viewridgees.seattleschools.org/","XCOORD":"1.28522518996e+06","YCOORD":"2.51621500163e+05","SITE_USE":"Active","PRJ_ENRLLM":""}},{"type":"Feature","geometry":{"type":"Point","coordinates":[-122.28338622378956,47.56590518377928]},"properties":{"OBJECTID":"50","TYPE":"Elementary","SCHOOL":"HAWTHORNE ELEM","ADDRESS":"4100 39th Ave S","SE_ANNO_CA":"","NAME":"Hawthorne","GRADE":"K-5","CITY":"Seattle","ZIP":"98118","PHONE":"(206)252-7210","WEBSITE":"http://hawthornees.seattleschools.org/","XCOORD":"1.28245270010e+06","YCOORD":"2.09797739979e+05","SITE_USE":"Active","PRJ_ENRLLM":""}},{"type":"Feature","geometry":{"type":"Point","coordinates":[-122.31548472078734,47.60120053342484]},"properties":{"OBJECTID":"56","TYPE":"Elementary","SCHOOL":"GATZERT ELEM","ADDRESS":"1301 E Yesler Way","SE_ANNO_CA":"","NAME":"Bailey Gatzert","GRADE":"K-5","CITY":"Seattle","ZIP":"98122","PHONE":"(206)252-2810","WEBSITE":"http://gatzertes.seattleschools.org/","XCOORD":"1.27477768986e+06","YCOORD":"2.22820819904e+05","SITE_USE":"Active","PRJ_ENRLLM":""}},{"type":"Feature","geometry":{"type":"Point","coordinates":[-122.30747272284218,47.698448543336724]},"properties":{"OBJECTID":"57","TYPE":"Elementary","SCHOOL":"SACAJAWEA ELEM","ADDRESS":"9501 20th Ave NE","SE_ANNO_CA":"","NAME":"Sacajawea","GRADE":"K-5","CITY":"Seattle","ZIP":"98115","PHONE":"(206)252-5550","WEBSITE":"http://sacajaweaes.seattleschools.org/","XCOORD":"1.27743342011e+06","YCOORD":"2.58249080084e+05","SITE_USE":"Active","PRJ_ENRLLM":""}},{"type":"Feature","geometry":{"type":"Point","coordinates":[-122.39151960172529,47.67363214494686]},"properties":{"OBJECTID":"59","TYPE":"Elementary","SCHOOL":"ADAMS ELEM","ADDRESS":"6110 28th Ave NW","SE_ANNO_CA":"","NAME":"Adams","GRADE":"K-5","CITY":"Seattle","ZIP":"98107","PHONE":"(206)252-1300","WEBSITE":"http://adamses.seattleschools.org/","XCOORD":"1.25655770006e+06","YCOORD":"2.49606479915e+05","SITE_USE":"Active","PRJ_ENRLLM":""}},{"type":"Feature","geometry":{"type":"Point","coordinates":[-122.37758781340749,47.50970036065695]},"properties":{"OBJECTID":"60","TYPE":"Elementary","SCHOOL":"ARBOR HEIGHTS","ADDRESS":"3701 SW 104th St","SE_ANNO_CA":"","NAME":"Arbor Heights","GRADE":"K-5","CITY":"Seattle","ZIP":"98146","PHONE":"(206)252-9250","WEBSITE":"http://arborheightses.seattleschools.org/","XCOORD":"1.25878950005e+06","YCOORD":"1.89752729872e+05","SITE_USE":"Active","PRJ_ENRLLM":""}},{"type":"Feature","geometry":{"type":"Point","coordinates":[-122.29057986213614,47.57324134730415]},"properties":{"OBJECTID":"62","TYPE":"Elementary","SCHOOL":"JOHN MUIR ELEM","ADDRESS":"3301 S Horton St","SE_ANNO_CA":"","NAME":"John Muir","GRADE":"K-5","CITY":"Seattle","ZIP":"98144","PHONE":"(206)252-7400","WEBSITE":"http://muires.seattleschools.org/","XCOORD":"1.28072773997e+06","YCOORD":"2.12506779836e+05","SITE_USE":"Active","PRJ_ENRLLM":""}},{"type":"Feature","geometry":{"type":"Point","coordinates":[-122.26317206420448,47.49886332128322]},"properties":{"OBJECTID":"65","TYPE":"Elementary","SCHOOL":"RAINIER VIEW ELEM","ADDRESS":"11650 Beacon Ave S","SE_ANNO_CA":"","NAME":"Rainier View","GRADE":"K-5","CITY":"Seattle","ZIP":"98178","PHONE":"(206)252-6700","WEBSITE":"http://rainierviewes.seattleschools.org/","XCOORD":"1.28698790986e+06","YCOORD":"1.85254069906e+05","SITE_USE":"Active","PRJ_ENRLLM":""}},{"type":"Feature","geometry":{"type":"Point","coordinates":[-122.30428420318245,47.640632637131866]},"properties":{"OBJECTID":"69","TYPE":"Elementary","SCHOOL":"MONTLAKE ELEM","ADDRESS":"2409 22nd Ave E","SE_ANNO_CA":"","NAME":"Montlake","GRADE":"K-5","CITY":"Seattle","ZIP":"98112","PHONE":"(206)252-3300","WEBSITE":"http://montlakees.seattleschools.org/","XCOORD":"1.27781537014e+06","YCOORD":"2.37148640001e+05","SITE_USE":"Active","PRJ_ENRLLM":""}},{"type":"Feature","geometry":{"type":"Point","coordinates":[-122.34827728699305,47.52517749427089]},"properties":{"OBJECTID":"71","TYPE":"Elementary","SCHOOL":"HIGHLAND PARK ELEM","ADDRESS":"1012 SW Trenton St","SE_ANNO_CA":"","NAME":"Highland Park","GRADE":"K-5","CITY":"Seattle","ZIP":"98106","PHONE":"(206)252-8240","WEBSITE":"http://highlandparkes.seattleschools.org/","XCOORD":"1.26614311002e+06","YCOORD":"1.95253180157e+05","SITE_USE":"Active","PRJ_ENRLLM":""}},{"type":"Feature","geometry":{"type":"Point","coordinates":[-122.30786488461825,47.63145622991844]},"properties":{"OBJECTID":"72","TYPE":"Elementary","SCHOOL":"STEVENS ELEM","ADDRESS":"1242 18th Ave E","SE_ANNO_CA":"","NAME":"Stevens","GRADE":"K-5","CITY":"Seattle","ZIP":"98112","PHONE":"(206)252-3400","WEBSITE":"http://stevenses.seattleschools.org/","XCOORD":"1.27686868010e+06","YCOORD":"2.33818910112e+05","SITE_USE":"Active","PRJ_ENRLLM":""}},{"type":"Feature","geometry":{"type":"Point","coordinates":[-122.29628697987928,47.552262359087024]},"properties":{"OBJECTID":"74","TYPE":"Elementary","SCHOOL":"DEARBORN PARK ELEM","ADDRESS":"2820 S Orcas St","SE_ANNO_CA":"","NAME":"Dearborn Park Int'l","GRADE":"K-5","CITY":"Seattle","ZIP":"98108","PHONE":"(206)252-6930","WEBSITE":"http://dearbornes.seattleschools.org/","XCOORD":"1.27917376998e+06","YCOORD":"2.04882489967e+05","SITE_USE":"Active","PRJ_ENRLLM":""}},{"type":"Feature","geometry":{"type":"Point","coordinates":[-122.39047452037403,47.65671240511216]},"properties":{"OBJECTID":"77","TYPE":"Elementary","SCHOOL":"LAWTON ELEM","ADDRESS":"4000 27th Ave W","SE_ANNO_CA":"","NAME":"Lawton","GRADE":"K-5","CITY":"Seattle","ZIP":"98199","PHONE":"(206)252-2130","WEBSITE":"http://lawtones.seattleschools.org/","XCOORD":"1.25669024999e+06","YCOORD":"2.43430789839e+05","SITE_USE":"Active","PRJ_ENRLLM":""}},{"type":"Feature","geometry":{"type":"Point","coordinates":[-122.36559910811934,47.64051598670184]},"properties":{"OBJECTID":"78","TYPE":"Elementary","SCHOOL":"COE ELEM","ADDRESS":"2424 7th Ave W","SE_ANNO_CA":"","NAME":"Coe","GRADE":"K-5","CITY":"Seattle","ZIP":"98119","PHONE":"(206)252-2000","WEBSITE":"http://coees.seattleschools.org/","XCOORD":"1.26270186001e+06","YCOORD":"2.37401020074e+05","SITE_USE":"Active","PRJ_ENRLLM":""}},{"type":"Feature","geometry":{"type":"Point","coordinates":[-122.36112944519192,47.70597281507116]},"properties":{"OBJECTID":"79","TYPE":"Elementary","SCHOOL":"VIEWLANDS ELEM","ADDRESS":"10525 3rd Ave NW","SE_ANNO_CA":"","NAME":"Viewlands","GRADE":"K-5","CITY":"Seattle","ZIP":"98177","PHONE":"(206)252-4400","WEBSITE":"http://viewlandses.seattleschools.org/","XCOORD":"1.26427749990e+06","YCOORD":"2.61250829986e+05","SITE_USE":"Active","PRJ_ENRLLM":""}},{"type":"Feature","geometry":{"type":"Point","coordinates":[-122.29220552396585,47.671841943098556]},"properties":{"OBJECTID":"83","TYPE":"Elementary","SCHOOL":"BRYANT ELEM","ADDRESS":"3311 NE 60th St","SE_ANNO_CA":"","NAME":"Bryant","GRADE":"K-5","CITY":"Seattle","ZIP":"98115","PHONE":"(206)252-5200","WEBSITE":"http://bryantes.seattleschools.org/","XCOORD":"1.28100830010e+06","YCOORD":"2.48473999896e+05","SITE_USE":"Active","PRJ_ENRLLM":""}},{"type":"Feature","geometry":{"type":"Point","coordinates":[-122.30675545410209,47.72368616328506]},"properties":{"OBJECTID":"85","TYPE":"Elementary","SCHOOL":"OLYMPIC HILLS ELEM","ADDRESS":"13018 20th Ave NE","SE_ANNO_CA":"","NAME":"Olympic Hills","GRADE":"K-5","CITY":"Seattle","ZIP":"98125","PHONE":"(206)413-2200","WEBSITE":"http://olympichillses.seattleschools.org/","XCOORD":"1.27778625996e+06","YCOORD":"2.67449850068e+05","SITE_USE":"Active","PRJ_ENRLLM":""}},{"type":"Feature","geometry":{"type":"Point","coordinates":[-122.3295850462409,47.71486716366007]},"properties":{"OBJECTID":"88","TYPE":"Elementary","SCHOOL":"NORTHGATE ELEM","ADDRESS":"11725 1st Ave NE","SE_ANNO_CA":"","NAME":"Northgate","GRADE":"K-5","CITY":"Seattle","ZIP":"98125","PHONE":"(206)252-4180","WEBSITE":"http://northgatees.seattleschools.org/","XCOORD":"1.27210572998e+06","YCOORD":"2.64341990142e+05","SITE_USE":"Active","PRJ_ENRLLM":""}},{"type":"Feature","geometry":{"type":"Point","coordinates":[-122.28266170970693,47.68502545388265]},"properties":{"OBJECTID":"90","TYPE":"Elementary","SCHOOL":"DECATUR BLDG/DS-2","ADDRESS":"7711 43rd Ave NE","SE_ANNO_CA":"","NAME":"Decatur","GRADE":"1-5","CITY":"Seattle","ZIP":"98115","PHONE":"(206)252-3230","WEBSITE":"https://decatures.seattleschools.org/","XCOORD":"1.28344980014e+06","YCOORD":"2.53237617010e+05","SITE_USE":"Active","PRJ_ENRLLM":""}},{"type":"Feature","geometry":{"type":"Point","coordinates":[-122.3992624306124,47.642257357222256]},"properties":{"OBJECTID":"91","TYPE":"Elementary","SCHOOL":"CATHARINE BLAINE","ADDRESS":"2550 34th Ave W","SE_ANNO_CA":"","NAME":"Catharine Blaine K-8","GRADE":"K-8","CITY":"Seattle","ZIP":"98199","PHONE":"(206)252-1920","WEBSITE":"http://blainek8.seattleschools.org/","XCOORD":"1.25441766004e+06","YCOORD":"2.38203119848e+05","SITE_USE":"Active","PRJ_ENRLLM":""}},{"type":"Feature","geometry":{"type":"Point","coordinates":[-122.3030144886297,47.57404525475119]},"properties":{"OBJECTID":"92","TYPE":"Elementary","SCHOOL":"KIMBALL ELEM","ADDRESS":"3200 23rd Ave S","SE_ANNO_CA":"","NAME":"Kimball","GRADE":"K-5","CITY":"Seattle","ZIP":"98144","PHONE":"(206)252-7280","WEBSITE":"http://kimballes.seattleschools.org/","XCOORD":"1.27766450003e+06","YCOORD":"2.12858329986e+05","SITE_USE":"Active","PRJ_ENRLLM":""}},{"type":"Feature","geometry":{"type":"Point","coordinates":[-122.29086890500083,47.6122367753012]},"properties":{"OBJECTID":"93","TYPE":"Elementary","SCHOOL":"MADRONA","ADDRESS":"1121 33rd Ave","SE_ANNO_CA":"","NAME":"Madrona","GRADE":"K-5","CITY":"Seattle","ZIP":"98122","PHONE":"(206)252-3100","WEBSITE":"http://madronak8.seattleschools.org/","XCOORD":"1.28092579010e+06","YCOORD":"2.26729750078e+05","SITE_USE":"Active","PRJ_ENRLLM":""}},{"type":"Feature","geometry":{"type":"Point","coordinates":[-122.28463373039452,47.70742643437471]},"properties":{"OBJECTID":"94","TYPE":"Elementary","SCHOOL":"JOHN ROGERS ELEM","ADDRESS":"4030 NE 109th St","SE_ANNO_CA":"","NAME":"John Rogers","GRADE":"K-5","CITY":"Seattle","ZIP":"98125","PHONE":"(206)252-4320","WEBSITE":"http://rogerses.seattleschools.org/","XCOORD":"1.28311824011e+06","YCOORD":"2.61416439891e+05","SITE_USE":"Active","PRJ_ENRLLM":""}},{"type":"Feature","geometry":{"type":"Point","coordinates":[-122.35996030045088,47.687253894096585]},"properties":{"OBJECTID":"95","TYPE":"Elementary","SCHOOL":"GREENWOOD ELEM","ADDRESS":"144 NW 80th St","SE_ANNO_CA":"","NAME":"Greenwood","GRADE":"K-5","CITY":"Seattle","ZIP":"98117","PHONE":"(206)252-1400","WEBSITE":"http://greenwoodes.seattleschools.org/","XCOORD":"1.26442986016e+06","YCOORD":"2.54418429937e+05","SITE_USE":"Active","PRJ_ENRLLM":""}},{"type":"Feature","geometry":{"type":"Point","coordinates":[-122.28483179203675,47.63407775044972]},"properties":{"OBJECTID":"98","TYPE":"Elementary","SCHOOL":"MC GILVRA ELEM","ADDRESS":"1617 38th Ave E","SE_ANNO_CA":"","NAME":"McGilvra","GRADE":"K-5","CITY":"Seattle","ZIP":"98112","PHONE":"(206)252-3160","WEBSITE":"http://mcgilvraes.seattleschools.org/","XCOORD":"1.28256488000e+06","YCOORD":"2.34667019965e+05","SITE_USE":"Active","PRJ_ENRLLM":""}},{"type":"Feature","geometry":{"type":"Point","coordinates":[-122.38849821891866,47.54025088577479]},"properties":{"OBJECTID":"99","TYPE":"Elementary","SCHOOL":"GATEWOOD ELEM","ADDRESS":"4320 SW Myrtle St","SE_ANNO_CA":"","NAME":"Gatewood","GRADE":"K-5","CITY":"Seattle","ZIP":"98136","PHONE":"(206)252-9400","WEBSITE":"http://gatewoodes.seattleschools.org/","XCOORD":"1.25631879010e+06","YCOORD":"2.00948509974e+05","SITE_USE":"Active","PRJ_ENRLLM":""}},{"type":"Feature","geometry":{"type":"Point","coordinates":[-122.29705381661879,47.690538045542105]},"properties":{"OBJECTID":"100","TYPE":"Elementary","SCHOOL":"WEDGWOOD ELEM","ADDRESS":"2720 NE 85th St","SE_ANNO_CA":"","NAME":"Wedgwood","GRADE":"K-5","CITY":"Seattle","ZIP":"98115","PHONE":"(206)252-5670","WEBSITE":"http://wedgwoodes.seattleschools.org/","XCOORD":"1.27994371988e+06","YCOORD":"2.55315149928e+05","SITE_USE":"Active","PRJ_ENRLLM":""}},{"type":"Feature","geometry":{"type":"Point","coordinates":[-122.32125787014972,47.69823172103014]},"properties":{"OBJECTID":"103","TYPE":"Elementary","SCHOOL":"OLYMPIC VIEW ELEM","ADDRESS":"504 NE 95th St","SE_ANNO_CA":"","NAME":"Olympic View","GRADE":"K-5","CITY":"Seattle","ZIP":"98115","PHONE":"(206)252-5500","WEBSITE":"http://olympicviewes.seattleschools.org/","XCOORD":"1.27403794003e+06","YCOORD":"2.58235330111e+05","SITE_USE":"Active","PRJ_ENRLLM":""}},{"type":"Feature","geometry":{"type":"Point","coordinates":[-122.35171658005886,47.63289848357708]},"properties":{"OBJECTID":"109","TYPE":"Elementary","SCHOOL":"HAY ELEM","ADDRESS":"201 Garfield St","SE_ANNO_CA":"","NAME":"Hay","GRADE":"K-5","CITY":"Seattle","ZIP":"98109","PHONE":"(206)252-2100","WEBSITE":"http://hayes.seattleschools.org/","XCOORD":"1.26606874009e+06","YCOORD":"2.34555130096e+05","SITE_USE":"Active","PRJ_ENRLLM":""}},{"type":"Feature","geometry":{"type":"Point","coordinates":[-122.31889888467431,47.55812571257705]},"properties":{"OBJECTID":"110","TYPE":"Elementary","SCHOOL":"MAPLE ELEM","ADDRESS":"4925 Corson Ave S","SE_ANNO_CA":"","NAME":"Maple","GRADE":"K-5","CITY":"Seattle","ZIP":"98108","PHONE":"(206)252-8310","WEBSITE":"http://maplees.seattleschools.org/","XCOORD":"1.27363224990e+06","YCOORD":"2.07127800109e+05","SITE_USE":"Active","PRJ_ENRLLM":""}},{"type":"Feature","geometry":{"type":"Point","coordinates":[-122.39688854060834,47.565492568633104]},"properties":{"OBJECTID":"111","TYPE":"Elementary","SCHOOL":"GENESEE HILL BLDG","ADDRESS":"5013 SW Dakota St","SE_ANNO_CA":"","NAME":"Genesee Hill","GRADE":"K-5","CITY":"Seattle","ZIP":"98116","PHONE":"(206)252-9700","WEBSITE":"http://geneseehilles.seattleschools.org/","XCOORD":"1.25443386999e+06","YCOORD":"2.10195879931e+05","SITE_USE":"Active","PRJ_ENRLLM":""}},{"type":"Feature","geometry":{"type":"Point","coordinates":[-122.32231534824145,47.677248142266805]},"properties":{"OBJECTID":"112","TYPE":"Elementary","SCHOOL":"JOHN MARSHALL","ADDRESS":"520 NE Ravenna Blvd","SE_ANNO_CA":"","NAME":"Bagley (interim at John Marshall)","GRADE":"K-5","CITY":"Seattle","ZIP":"98115","PHONE":"(206)252-5110","WEBSITE":"https://bagleyes.seattleschools.org/","XCOORD":"1.27362949990e+06","YCOORD":"2.50587700065e+05","SITE_USE":"Interim","PRJ_ENRLLM":""}},{"type":"Feature","geometry":{"type":"Point","coordinates":[-122.35314866876548,47.72463110801355]},"properties":{"OBJECTID":"113","TYPE":"Elementary","SCHOOL":"BROADVIEW-THOMSON","ADDRESS":"13052 Greenwood Ave N","SE_ANNO_CA":"","NAME":"Broadview-Thomson K-8","GRADE":"K-8","CITY":"Seattle","ZIP":"98133","PHONE":"(206)252-4080","WEBSITE":"http://broadviewk8.seattleschools.org/","XCOORD":"1.26637649013e+06","YCOORD":"2.68016519866e+05","SITE_USE":"Active","PRJ_ENRLLM":""}},{"type":"Feature","geometry":{"type":"Point","coordinates":[-122.3284978582122,47.67630160905856]},"properties":{"OBJECTID":"115","TYPE":"Elementary","SCHOOL":"GREENLAKE ELEM","ADDRESS":"2400 N 65th St","SE_ANNO_CA":"","NAME":"Green Lake","GRADE":"K-5","CITY":"Seattle","ZIP":"98103","PHONE":"(206)252-5320","WEBSITE":"http://greenlakees.seattleschools.org/","XCOORD":"1.27210002002e+06","YCOORD":"2.50272030093e+05","SITE_USE":"Active","PRJ_ENRLLM":""}},{"type":"Feature","geometry":{"type":"Point","coordinates":[-122.26853424903629,47.54575730995801]},"properties":{"OBJECTID":"116","TYPE":"Elementary","SCHOOL":"GRAHAM HILL ELEM","ADDRESS":"5149 S Graham St","SE_ANNO_CA":"","NAME":"Graham Hill","GRADE":"K-5","CITY":"Seattle","ZIP":"98118","PHONE":"(206)252-7140","WEBSITE":"http://grahamhilles.seattleschools.org/","XCOORD":"1.28598161988e+06","YCOORD":"2.02381050088e+05","SITE_USE":"Active","PRJ_ENRLLM":""}}]}